City_ID,City,Lat,Lng,Max Temp,Humidity,Cloudiness,Wind Speed,Country,Date
0,berbera,10.4396,45.0143,29.61,71,1,2.31,SO,1697479411
1,waitangi,-43.9535,-176.5597,12.68,90,75,3.58,NZ,1697479412
2,ushuaia,-54.8,-68.3,8.81,54,75,4.63,AR,1697479323
3,isafjordur,66.0755,-23.124,3.02,75,20,5.66,IS,1697479413
4,islamkot,24.6997,70.177,26.94,67,0,4.8,PK,1697479378
5,paros,37.0833,25.15,22.39,80,12,5.82,GR,1697479413
6,camayenne,9.535,-13.6878,29.05,79,40,5.14,GN,1697479414
7,kalymnos,36.95,26.9833,20.74,68,0,2.57,GR,1697479414
8,saipan,15.1355,145.701,28.33,76,34,5.98,MP,1697479414
9,suda,59.1525,37.5582,-1.94,85,100,2.26,RU,1697479414
10,malaga,36.7202,-4.4203,25.39,79,0,3.6,ES,1697479379
11,alpena,45.0617,-83.4327,10.14,77,100,6.69,US,1697479415
12,carolina beach,34.0352,-77.8936,20.08,56,52,1.34,US,1697479415
13,adamstown,-25.066,-130.1015,21.23,85,57,4.44,PN,1697479309
14,rhinelander,45.6366,-89.4121,11.84,66,75,3.09,US,1697479415
15,al bardiyah,31.7561,25.0865,22.87,73,0,4.47,LY,1697479416
16,papatowai,-46.5619,169.4708,6.65,76,97,3.03,NZ,1697479416
17,bratsk,56.1325,101.6142,1.27,97,95,5.7,RU,1697479416
18,carnarvon,-24.8667,113.6333,23.92,53,0,5.04,AU,1697479416
19,lupane,-18.9315,27.807,24.3,64,99,4.6,ZW,1697479416
20,ouddorp,51.8117,3.9347,11.12,78,100,5.6,NL,1697479416
21,quellon,-43.1167,-73.6167,10.87,64,26,4.4,CL,1697479416
22,puerto natales,-51.7236,-72.4875,13.25,44,40,14.4,CL,1697479315
23,albany,42.6001,-73.9662,14.69,64,78,3.73,US,1697478795
24,kailua-kona,19.6406,-155.9956,25.84,84,72,0.45,US,1697479417
25,leava,-14.3,-178.1667,26.51,82,73,9.84,WF,1697479417
26,berdigestyakh,62.0989,126.6992,-4.84,69,100,4.47,RU,1697479417
27,san pedro de macoris,18.4616,-69.2972,33.07,65,33,5.34,DO,1697479417
28,port elizabeth,-33.918,25.5701,18.16,89,40,3.6,ZA,1697479333
29,ishurdi,24.1333,89.0833,24.03,78,22,2.85,BD,1697479417
30,tobarra,38.5921,-1.6919,22.32,47,100,1.99,ES,1697479417
31,kununurra,-15.7667,128.7333,18.99,45,0,1.03,AU,1697479417
32,bucerias,20.75,-105.3333,33.32,62,75,0.0,MX,1697479418
33,port-aux-francais,-49.35,70.2167,3.35,85,92,12.25,TF,1697479418
34,enewetak,11.3474,162.3373,28.33,77,47,6.3,MH,1697479418
35,alofi,-19.0595,-169.9187,21.94,88,75,7.72,NU,1697479356
36,vorgashor,67.5833,63.95,1.55,99,100,4.49,RU,1697479418
37,joao pessoa,-7.115,-34.8631,28.13,61,75,9.26,BR,1697479418
38,edinburgh of the seven seas,-37.0676,-12.3116,12.4,67,7,2.15,SH,1697479312
39,masaka,-0.3338,31.7341,18.95,88,100,2.44,UG,1697479418
40,grytviken,-54.2811,-36.5092,0.63,77,29,5.14,GS,1697479418
41,busayra,30.7376,35.6078,16.32,67,0,2.21,JO,1697479419
42,sal'sk,46.4725,41.5428,18.26,46,52,3.58,RU,1697479419
43,fisterra,42.9049,-9.2629,21.53,83,100,14.16,ES,1697479419
44,bethel,41.3712,-73.414,17.11,65,88,0.45,US,1697479309
45,amga,60.8953,131.9608,-7.23,73,53,1.34,RU,1697479419
46,coquimbo,-29.9533,-71.3436,16.85,67,0,5.14,CL,1697479419
47,lerwick,60.1545,-1.1494,10.0,84,100,9.92,GB,1697479419
48,tiksi,71.6872,128.8694,-11.34,89,96,4.85,RU,1697479419
49,gadzhiyevo,69.2551,33.3362,3.25,86,100,13.48,RU,1697479420
50,mbandjok,4.45,11.9,21.76,95,94,1.05,CM,1697479420
51,tindouf,27.6711,-8.1474,34.25,16,40,2.06,DZ,1697479420
52,minas de marcona,-15.2119,-75.1103,21.75,56,46,4.48,PE,1697479421
53,bubaque,11.2833,-15.8333,28.09,81,5,4.58,GW,1697479422
54,port mathurin,-19.6833,63.4167,24.02,87,18,4.92,MU,1697479270
55,namie,37.4833,141.0,14.29,78,47,5.27,JP,1697479422
56,tanout,14.9709,8.8879,33.49,16,56,4.07,NE,1697479424
57,buka,40.8108,69.1986,11.89,36,33,0.5,UZ,1697479424
58,broken hill,-31.95,141.4333,10.37,45,0,6.06,AU,1697479424
59,anadyr,64.75,177.4833,-1.72,86,75,5.0,RU,1697479424
60,ancud,-41.8697,-73.8203,8.7,77,4,10.65,CL,1697479217
61,west island,-12.1568,96.8225,25.99,83,40,5.66,CC,1697479320
62,kham sakae saeng,15.3322,102.1728,23.76,87,73,2.67,TH,1697479337
63,dudinka,69.4058,86.1778,-1.32,74,100,2.24,RU,1697479327
64,chibougamau,49.9168,-74.3659,4.79,87,100,4.63,CA,1697479426
65,iqaluit,63.7506,-68.5145,-3.15,63,20,4.12,CA,1697479214
66,laojunmiao,39.8333,97.7333,5.44,50,100,1.69,CN,1697479318
67,ojinaga,29.5667,-104.4167,25.87,31,0,2.57,MX,1697479426
68,nova vicosa,-17.8919,-39.3719,27.34,63,22,5.35,BR,1697479330
69,ternate,0.8,127.4,26.6,81,60,2.05,ID,1697479427
70,bredasdorp,-34.5322,20.0403,15.88,91,54,6.04,ZA,1697479211
71,augusto correa,-1.0217,-46.635,30.5,59,43,4.14,BR,1697479311
72,bereket,39.2446,55.5154,18.36,17,36,8.17,TM,1697479428
73,tayshet,55.9342,98.0044,3.7,86,100,4.47,RU,1697479428
74,bilibino,68.0546,166.4372,-10.58,97,99,1.07,RU,1697479428
75,thompson,55.7435,-97.8558,9.09,81,75,2.06,CA,1697479428
76,stanley,54.868,-1.6985,7.1,83,0,1.03,GB,1697479315
77,wailua homesteads,22.0669,-159.378,25.24,87,83,1.79,US,1697479429
78,margaret river,-33.95,115.0667,17.87,45,18,1.71,AU,1697479208
79,itamaraca,-7.7478,-34.8256,28.03,68,50,6.31,BR,1697479430
80,choyr,46.3611,108.3611,5.05,50,86,6.39,MN,1697479430
81,susuman,62.7833,148.1667,-19.19,89,49,0.98,RU,1697479354
82,lompoc,34.6391,-120.4579,20.51,85,20,4.63,US,1697479246
83,xilin hot,43.9667,116.0333,7.75,41,71,3.12,CN,1697479430
84,broome,42.2506,-75.833,14.21,87,75,4.12,US,1697479430
85,san mariano,7.5,126.0,21.94,93,87,1.3,PH,1697479430
86,mabaruma,8.2,-59.7833,33.03,52,20,3.71,GY,1697479430
87,tura,25.5198,90.2201,20.32,91,0,1.84,IN,1697479430
88,st. john's,47.5649,-52.7093,12.31,97,100,8.94,CA,1697479210
89,chonchi,-42.6128,-73.8092,12.56,49,38,2.33,CL,1697479431
90,market deeping,52.6765,-0.3163,10.58,87,75,3.09,GB,1697479431
91,argo,37.6333,22.7333,21.55,63,97,1.08,GR,1697479391
92,aasiaat,68.7098,-52.8699,-9.03,96,93,1.39,GL,1697479364
93,gargalianoi,37.0667,21.6333,22.42,83,83,3.63,GR,1697479431
94,gurupi,-11.7292,-49.0686,39.92,14,3,3.65,BR,1697479286
95,hawaiian paradise park,19.5933,-154.9731,25.5,90,14,2.01,US,1697479431
96,yellowknife,62.456,-114.3525,6.34,100,100,5.66,CA,1697479274
97,namibe,-15.1961,12.1522,18.46,81,15,2.05,AO,1697479433
98,queenstown,-31.8976,26.8753,10.91,87,96,3.93,ZA,1697479290
99,invercargill,-46.4,168.35,5.57,95,95,0.95,NZ,1697479242
100,ilulissat,69.2167,-51.1,-5.99,86,75,8.75,GL,1697479434
101,punta del este,-34.9667,-54.95,24.06,85,75,3.13,UY,1697479434
102,shetpe,44.1667,52.1167,14.48,20,67,8.51,KZ,1697479434
103,college,64.8569,-147.8028,2.26,80,75,1.54,US,1697479434
104,puerto lempira,15.2667,-83.7667,31.08,66,75,4.12,HN,1697479434
105,blackmans bay,-43.0167,147.3167,4.07,86,20,0.45,AU,1697479313
106,moires,35.0532,24.8744,22.42,87,0,0.89,GR,1697479435
107,dunedin,-45.8742,170.5036,7.67,95,100,2.68,NZ,1697479243
108,kamina,-8.7386,24.9906,22.55,76,98,2.76,CD,1697479435
109,lata,40.1629,-8.3327,19.59,85,99,4.04,PT,1697479368
110,hidrolandia,-4.4081,-40.4378,35.91,29,87,1.48,BR,1697479436
111,tual,-5.6667,132.75,26.81,83,79,6.47,ID,1697479436
112,longyearbyen,78.2186,15.6401,-3.09,68,20,7.2,SJ,1697479436
113,yermakovskoye,53.2831,92.4003,5.53,70,71,4.92,RU,1697479437
114,nuku'alofa,-21.1333,-175.2,21.19,83,20,3.6,TO,1697479437
115,newman,37.3138,-121.0208,25.69,35,11,2.77,US,1697479437
116,mossel bay,-34.1831,22.146,16.96,92,41,5.18,ZA,1697479261
117,lufilufi,-13.8745,-171.5986,24.88,78,80,9.61,WS,1697479438
118,smithers,54.7804,-127.1743,8.18,93,75,1.54,CA,1697479254
119,utrik,11.2278,169.8474,28.29,75,72,8.43,MH,1697479439
120,ilebo,-4.3167,20.5833,25.61,77,99,0.49,CD,1697479439
121,yeniseysk,58.4497,92.1703,6.08,70,100,2.24,RU,1697479439
122,kuragino,53.8975,92.6725,5.42,77,94,4.05,RU,1697479440
123,dehui,44.5333,125.7,4.25,33,4,2.24,CN,1697479440
124,iskateley,67.6803,53.1512,3.9,93,95,5.81,RU,1697479315
125,sisimiut,66.9395,-53.6735,-4.93,89,97,4.07,GL,1697479441
126,oranjemund,-28.55,16.4333,17.78,73,1,4.12,NA,1697479442
127,kasane,-17.8167,25.15,30.05,39,0,1.54,BW,1697479442
128,villa hernandarias,-31.231,-59.985,27.92,63,97,3.08,AR,1697479442
129,camacupa,-12.0167,17.4833,22.23,60,81,1.98,AO,1697479443
130,petropavlovsk-kamchatsky,53.0452,158.6483,7.33,88,75,5.0,RU,1697479355
131,yeed,4.55,43.0333,30.3,50,100,1.18,SO,1697479443
132,sao francisco,-15.9486,-44.8644,36.29,22,7,4.71,BR,1697479338
133,margate,51.3813,1.3862,13.28,71,100,1.79,GB,1697479297
134,nicoya,10.1483,-85.452,27.09,85,96,2.43,CR,1697479444
135,esmeraldas,-19.7625,-44.3139,31.52,32,15,4.4,BR,1697479276
136,chinde,26.8418,88.0763,14.39,81,64,2.37,NP,1697479445
137,ilhabela,-23.7781,-45.3581,24.19,90,29,1.51,BR,1697479445
138,udachny,66.4167,112.4,-3.64,92,99,1.62,RU,1697479330
139,nizhniy odes,63.6445,54.856,5.65,90,100,3.44,RU,1697479446
140,pemangkat,1.1667,108.9667,26.62,87,99,1.57,ID,1697479446
141,ribeira grande,38.5167,-28.7,23.22,68,20,4.12,PT,1697479446
142,plettenberg bay,-34.0527,23.3716,16.34,88,14,6.48,ZA,1697479446
143,avarua,-21.2078,-159.775,22.03,64,75,3.6,CK,1697479447
144,talnakh,69.4865,88.3972,-1.55,97,100,2.87,RU,1697479447
145,jamestown,42.097,-79.2353,11.12,97,100,5.14,US,1697479447
146,jodhpur,26.2867,73.03,27.36,46,28,6.84,IN,1697479297
147,koriyama,37.4,140.3833,13.43,80,55,3.85,JP,1697479447
148,rudnya,54.947,31.0934,3.71,78,67,4.31,RU,1697479447
149,belmonte,-15.8631,-38.8828,27.03,58,15,3.97,BR,1697479448
150,hermanus,-34.4187,19.2345,17.1,84,37,6.36,ZA,1697479449
151,pisco,-13.7,-76.2167,20.57,83,75,5.66,PE,1697479323
152,tulun,54.5611,100.5792,2.5,86,93,4.36,RU,1697479449
153,uturoa,-16.7333,-151.4333,25.13,80,99,6.19,PF,1697479450
154,remire-montjoly,4.9167,-52.2667,34.02,52,0,6.17,GF,1697479450
155,sao joao da barra,-21.6403,-41.0511,28.05,85,22,6.36,BR,1697479394
156,krasnopillya,50.7746,35.2597,6.64,73,100,7.56,UA,1697479450
157,saint-joseph,-21.3667,55.6167,24.21,88,54,1.15,RE,1697479450
158,vila franca do campo,37.7167,-25.4333,22.16,99,54,7.89,PT,1697479450
159,meadow lakes,61.6247,-149.6011,7.93,62,0,6.69,US,1697479450
160,degerfors,59.238,14.4308,3.71,60,15,2.99,SE,1697479450
161,santa elena de uairen,4.6167,-61.1333,28.75,48,92,3.46,VE,1697479451
162,kone,-21.0595,164.8658,22.75,91,98,2.52,NC,1697479451
163,atasu,48.6814,71.6433,8.08,52,52,1.2,KZ,1697479451
164,zaozersk,69.4005,32.4476,2.57,83,100,11.09,RU,1697479451
165,levuka,50.1834,-105.4011,15.85,44,40,3.6,CA,1697479451
166,borba,-4.3878,-59.5939,36.88,32,89,2.44,BR,1697479347
167,howrah,22.5892,88.3103,28.0,74,20,0.0,IN,1697479451
168,constantia,44.1833,28.65,8.38,54,1,4.85,RO,1697479445
169,vilyuysk,63.7553,121.6247,-2.12,52,100,5.36,RU,1697479357
170,walvis bay,-22.9575,14.5053,14.49,85,15,3.39,NA,1697479453
171,rabo de peixe,37.8,-25.5833,21.66,99,40,7.2,PT,1697479454
172,tsiombe,-25.3,45.4833,22.04,71,100,3.12,MG,1697479454
173,tuy hoa,13.0833,109.3,23.74,94,100,2.54,VN,1697479224
174,mokhsogollokh,61.4681,128.9203,-4.87,57,82,2.86,RU,1697479455
175,nemuro,43.3236,145.575,9.68,67,38,6.83,JP,1697479328
176,dalhart,36.0595,-102.5133,21.38,30,32,2.44,US,1697479304
177,kapuskasing,49.4169,-82.4331,7.05,87,75,4.12,CA,1697479456
178,gilgit,35.9221,74.3087,13.67,77,100,0.97,PK,1697479456
179,lagoa,39.05,-27.9833,19.79,81,67,7.83,PT,1697479456
180,polyarnyye zori,67.3661,32.4981,0.55,97,100,6.46,RU,1697479456
181,olonkinbyen,70.9221,-8.7187,0.58,83,100,6.18,SJ,1697479314
182,xinxiang,35.3089,113.8672,17.18,53,0,1.25,CN,1697479457
183,kourou,5.1552,-52.6478,34.03,58,67,5.03,GF,1697479390
184,howard springs,-12.497,131.047,25.95,86,19,1.95,AU,1697479457
185,puerto ayora,-0.7393,-90.3518,26.98,89,92,4.02,EC,1697479458
186,el calafate,-50.3408,-72.2768,8.85,54,100,5.07,AR,1697479458
187,facatativa,4.8137,-74.3545,17.75,70,89,2.56,CO,1697479459
188,colonia,50.9333,6.95,9.92,84,20,2.06,DE,1697479291
189,guercif,34.2257,-3.3536,28.75,27,99,3.39,MA,1697479459
190,tolanaro,-25.0319,46.9987,23.04,73,75,0.0,MG,1697479460
191,ciudad bolivar,8.1222,-63.5497,33.28,47,100,0.91,VE,1697479460
192,hassi messaoud,31.6804,6.0729,31.92,12,20,1.54,DZ,1697479460
193,cill airne,52.05,-9.5167,11.03,82,20,3.6,IE,1697479332
194,georgetown,5.4112,100.3354,26.96,89,20,1.03,MY,1697479392
195,ust-tsilma,65.441,52.1498,5.9,81,90,4.47,RU,1697479461
196,dondo,-19.6094,34.7431,23.73,92,98,3.79,MZ,1697479461
197,pradopolis,-21.3594,-48.0656,35.1,32,29,2.75,BR,1697479462
198,selfoss,63.9331,-20.9971,5.58,75,92,1.01,IS,1697479462
199,van,38.4924,43.3831,12.41,63,51,1.97,TR,1697479331
200,laguna,38.421,-121.4238,27.23,51,0,2.06,US,1697479463
201,magadan,59.5667,150.8,2.52,66,100,1.34,RU,1697479463
202,san carlos de bariloche,-41.1456,-71.3082,12.86,26,0,5.66,AR,1697479218
203,punta arenas,-53.15,-70.9167,12.06,50,75,12.35,CL,1697479464
204,orange city,28.9489,-81.2987,22.35,56,40,6.69,US,1697479464
205,malayer,34.2969,48.8235,14.0,54,39,3.27,IR,1697479465
206,keflavik,64.0049,-22.5624,5.95,81,75,3.09,IS,1697479465
207,piti village,13.4626,144.6933,27.49,88,0,1.54,GU,1697479465
208,qaqortoq,60.7167,-46.0333,1.85,99,100,2.11,GL,1697479466
209,atafu village,-8.5421,-172.5159,28.27,79,100,8.95,TK,1697479466
210,pacific grove,36.6177,-121.9166,23.14,81,26,3.13,US,1697479320
211,lesozavodsk,45.4794,133.4244,2.2,48,77,4.22,RU,1697479467
212,san luis de la loma,17.2706,-100.8939,30.04,74,98,2.34,MX,1697479467
213,tazovsky,67.4667,78.7,-0.41,97,100,2.5,RU,1697479467
214,new norfolk,-42.7826,147.0587,4.72,95,8,1.48,AU,1697479359
215,muynoq,43.7683,59.0214,12.04,38,0,5.27,UZ,1697479468
216,amungan,15.3652,119.9582,25.28,77,98,3.3,PH,1697479468
217,springbok,-29.6643,17.8865,19.32,30,0,1.46,ZA,1697479468
218,hadibu,12.65,54.0333,27.68,74,71,2.85,YE,1697479468
219,ulaangom,49.9811,92.0667,4.06,44,32,1.8,MN,1697479468
220,fale old settlement,-9.3852,-171.2468,28.38,76,100,9.83,TK,1697479469
221,multai,21.7667,78.25,21.35,70,16,0.4,IN,1697479469
222,mingshui,36.7167,117.5,15.89,53,0,3.14,CN,1697479469
223,illizi,26.4833,8.4667,32.89,20,34,4.9,DZ,1697479469
224,nanping,26.645,118.1736,16.0,88,1,1.07,CN,1697479469
225,acarau,-2.8856,-40.12,29.61,61,25,9.39,BR,1697479470
226,hammerfest,70.6634,23.6821,2.25,80,75,5.66,NO,1697479470
227,halifax,44.6453,-63.5724,13.61,83,100,6.69,CA,1697478967
228,kruisfontein,-34.0033,24.7314,14.78,88,25,4.42,ZA,1697479327
229,praia da vitoria,38.7333,-27.0667,22.09,78,20,8.83,PT,1697479471
230,port-gentil,-0.7193,8.7815,27.98,74,75,7.72,GA,1697479472
231,al jawf,29.5,38.75,21.64,34,0,4.56,SA,1697479472
232,murang'a,-0.7167,37.15,19.58,79,100,0.96,KE,1697479472
233,port macquarie,-31.4333,152.9167,11.61,60,15,7.07,AU,1697479472
234,barcelos,41.5388,-8.6151,23.08,84,87,4.37,PT,1697479425
235,nar'yan-mar,67.6713,53.087,3.95,93,95,5.81,RU,1697479473
236,basco,20.4487,121.9702,27.15,77,72,8.89,PH,1697479473
237,port lincoln,-34.7333,135.8667,11.13,76,9,4.83,AU,1697479473
238,crane,31.3974,-102.3501,20.36,31,0,2.31,US,1697479474
239,whitehorse,60.7161,-135.0538,-0.57,100,100,1.54,CA,1697479335
240,puerto el triunfo,13.2833,-88.55,26.18,87,100,1.47,SV,1697479474
241,new plymouth,-39.0667,174.0833,16.0,94,94,8.26,NZ,1697479475
242,oakland,42.6667,-83.3999,12.05,87,100,7.2,US,1697479387
243,neelankarai,12.9455,80.2575,28.91,94,75,1.54,IN,1697479475
244,saldanha,-33.0117,17.9442,23.03,81,35,4.39,ZA,1697479475
245,san antonio de pale,-1.4014,5.6325,25.86,80,92,5.77,GQ,1697479475
246,lebu,-37.6167,-73.65,12.41,68,0,9.32,CL,1697479476
247,hotan,37.0997,79.9269,16.8,19,100,2.51,CN,1697479476
248,xinyuan,37.3,99.0,-2.82,80,100,2.94,CN,1697479476
249,novyye burasy,52.1324,46.0714,13.14,70,58,7.95,RU,1697479476
250,vadso,70.0744,29.7487,2.49,87,75,6.17,NO,1697479476
251,kidal,18.4411,1.4078,33.58,12,29,3.14,ML,1697479476
252,novodvinsk,64.4165,40.8122,3.77,78,71,4.87,RU,1697479476
253,antsiranana,-12.2787,49.2917,23.73,86,39,3.53,MG,1697479476
254,kudahuvadhoo,2.6708,72.8944,27.82,79,32,7.85,MV,1697479477
255,mareeba,-17.0,145.4333,17.47,92,74,1.5,AU,1697479210
256,kolonia,50.9333,6.95,9.92,84,20,2.06,DE,1697479291
257,thinadhoo,0.5333,72.9333,27.7,77,18,8.36,MV,1697479477
258,juruti,-2.1522,-56.0922,38.6,28,59,1.37,BR,1697479477
259,pariaman,-0.619,100.12,25.03,90,71,0.82,ID,1697479477
260,shahpur,16.7,76.8333,26.62,56,76,3.6,IN,1697479477
261,cole harbour,44.6724,-63.4751,13.32,83,100,6.69,CA,1697479478
262,kolonia town,6.964,158.206,28.58,75,46,3.03,FM,1697479478
263,luderitz,-26.6481,15.1594,18.98,65,0,6.91,NA,1697479478
264,betio village,1.358,172.9211,29.02,77,97,6.02,KI,1697479478
265,yacuiba,-22.038,-63.6797,41.43,17,5,3.09,BO,1697479478
266,pathein,16.7833,94.7333,24.85,93,100,0.45,MM,1697479478
267,galliano,29.4422,-90.2992,20.0,34,40,5.66,US,1697479478
268,simplicio mendes,-7.8539,-41.9103,37.03,19,7,3.95,BR,1697479334
269,san pedro pochutla,15.7333,-96.4667,32.84,61,99,2.28,MX,1697479479
270,cabo san lucas,22.8909,-109.9124,34.23,63,2,2.22,MX,1697479145
271,khovd,48.0056,91.6419,1.94,52,56,0.33,MN,1697479479
272,kuusamo,65.9667,29.1833,1.02,93,100,6.69,FI,1697479479
273,katsuura,35.1333,140.3,19.44,74,0,2.69,JP,1697479479
274,mirnyy,62.5353,113.9611,0.13,100,100,0.89,RU,1697479479
275,malka,43.8039,43.3242,13.51,42,69,2.47,RU,1697479479
276,aykhal,66.0,111.5,-3.85,94,99,4.92,RU,1697479479
277,sitka,57.0531,-135.33,11.13,82,100,2.85,US,1697479360
278,melfort,52.8667,-104.6177,10.07,62,34,2.57,CA,1697479480
279,glen cove,40.8623,-73.6337,18.39,58,54,2.24,US,1697479480
280,solwezi,-12.1688,26.3894,21.56,65,85,2.71,ZM,1697479260
281,vama,47.5667,25.6833,5.42,87,15,2.32,RO,1697479481
282,bonthe,7.5264,-12.505,27.44,77,61,3.46,SL,1697479481
283,aberdeen,57.1437,-2.0981,9.74,83,100,1.54,GB,1697479295
284,brisas de zicatela,15.8369,-97.0419,30.29,54,40,4.12,MX,1697479481
285,sur,22.5667,59.5289,28.54,68,47,5.42,OM,1697479482
286,toba tek singh,30.9743,72.4827,19.99,73,15,5.02,PK,1697479482
287,whangarei,-35.7317,174.3239,14.69,89,83,2.7,NZ,1697479482
288,ocean shores,46.9737,-124.1563,15.57,97,100,6.69,US,1697479483
289,akureyri,65.6835,-18.0878,2.96,87,75,5.14,IS,1697479208
290,al qaryatayn,34.2296,37.2407,17.65,63,0,3.93,SY,1697479483
291,sao gabriel da cachoeira,-0.1303,-67.0892,27.89,74,75,2.06,BR,1697479484
292,bocas del toro,9.3333,-82.25,26.77,71,100,1.34,PA,1697479484
293,beau vallon,-20.4189,57.6953,24.01,78,20,1.54,MU,1697479486
294,doaba,33.4244,70.7364,15.23,78,100,1.53,PK,1697479486
295,kaya,13.0917,-1.0844,32.74,34,92,0.66,BF,1697479487
296,andergrove,-21.0833,149.1833,17.03,83,45,2.55,AU,1697479487
297,syzran',53.1585,48.4681,12.76,55,17,6.96,RU,1697479487
298,ceerigaabo,10.6162,47.368,19.87,31,17,3.15,SO,1697479488
299,altamira,-3.2033,-52.2064,35.05,49,40,3.09,BR,1697479349
300,labytnangi,66.6572,66.4183,1.02,98,99,2.52,RU,1697479489
301,bandar-e anzali,37.4727,49.4622,17.78,87,50,2.11,IR,1697479220
302,agat village,13.3886,144.6585,27.52,90,0,1.54,GU,1697479489
303,tra mhor,52.1624,-7.1524,10.9,71,40,4.12,IE,1697479489
304,karratha,-20.7377,116.8463,28.12,25,0,3.87,AU,1697479490
305,antofagasta,-23.65,-70.4,18.6,74,54,4.29,CL,1697479213
306,nova sintra,14.8667,-24.7167,25.64,73,61,6.82,CV,1697479491
307,nouadhibou,20.931,-17.0347,28.99,51,38,6.69,MR,1697479492
308,pionerskiy,54.9508,20.2275,9.3,55,0,7.69,RU,1697479493
309,kyshtovka,56.555,76.6271,6.86,67,100,5.81,RU,1697479493
310,hilo,19.7297,-155.09,30.16,84,23,1.34,US,1697479389
311,biltine,14.5333,20.9167,33.34,14,92,4.68,TD,1697479494
312,camana,-16.6228,-72.7111,21.91,68,24,4.05,PE,1697479495
313,buchanan,5.8808,-10.0467,25.53,86,100,3.35,LR,1697479496
314,arraias,-12.9288,-46.9437,37.8,12,3,3.6,BR,1697479496
315,serhiyivka,46.0272,30.3768,10.09,60,1,8.63,UA,1697479496
316,selkirk,50.1436,-96.8845,13.99,59,15,1.79,CA,1697479400
317,freeport,40.6576,-73.5832,18.51,56,40,6.17,US,1697479416
318,yung shue wan,22.2333,114.1167,26.68,67,94,11.58,HK,1697479497
319,fort saskatchewan,53.7168,-113.2187,15.06,67,75,2.24,CA,1697479297
320,wucheng,29.6008,118.175,15.73,77,0,0.97,CN,1697479497
321,rampur,28.8167,79.0333,19.33,86,98,0.83,IN,1697479497
322,vorkuta,67.5,64.0,1.71,99,100,4.47,RU,1697479498
323,canyon lake,29.8752,-98.2625,22.84,39,0,4.02,US,1697479488
324,holualoa,19.6228,-155.9522,23.77,84,74,1.23,US,1697479331
325,poso,-1.3959,120.7524,25.08,80,10,2.05,ID,1697479500
326,dalandzadgad,43.5708,104.425,9.3,22,100,6.91,MN,1697479369
327,papao,-17.75,-149.55,26.82,83,100,5.81,PF,1697479501
328,sumenep,-7.0167,113.8667,27.05,78,99,5.8,ID,1697479501
329,lucerne valley,34.4439,-116.9678,32.4,16,0,0.68,US,1697479501
330,tshabong,-26.05,22.45,22.75,16,0,4.87,BW,1697479502
331,aripuana,-9.1667,-60.6333,35.87,35,93,1.22,BR,1697479502
332,guerrero negro,27.9769,-114.0611,22.09,74,5,4.02,MX,1697479262
333,krasnovishersk,60.4078,57.082,10.86,91,100,3.25,RU,1697479505
334,aur,8.1499,171.1687,28.05,72,49,4.63,MH,1697479506
335,grande prairie,55.1667,-118.8027,3.1,93,75,0.0,CA,1697479292
336,yamada,39.4667,141.95,11.03,69,13,2.47,JP,1697479508
337,hithadhoo,-0.6,73.0833,27.43,73,24,8.25,MV,1697479509
338,palmer,42.1584,-72.3287,15.78,69,100,5.14,US,1697479509
339,northport,33.229,-87.5772,16.9,53,75,4.63,US,1697479488
340,nogliki,51.8333,143.1667,9.08,84,100,3.13,RU,1697479509
341,la'ie,21.6477,-157.9253,27.98,87,65,2.24,US,1697479510
342,pangai,-19.8,-174.35,23.06,73,20,5.66,TO,1697479511
343,muurame,62.1333,25.6667,3.42,81,92,4.3,FI,1697479511
344,nadi,-17.8,177.4167,21.0,78,20,2.57,FJ,1697479243
345,carauari,-4.8828,-66.8958,35.3,39,96,0.5,BR,1697479512
346,zag,46.9441,99.165,-2.19,43,22,2.82,MN,1697479513
347,staroyur'yevo,53.3161,40.7081,8.83,83,100,6.14,RU,1697479513
348,horta,38.5333,-28.6333,22.8,75,20,4.12,PT,1697479309
349,urucui,-7.2294,-44.5561,39.92,18,16,3.5,BR,1697479296
350,svetlyy,54.675,20.1347,9.42,66,1,4.36,RU,1697479514
351,port alfred,-33.5906,26.891,16.77,89,92,0.45,ZA,1697479334
352,vernon,50.2581,-119.2691,14.05,87,100,1.54,CA,1697479312
353,suva,-18.1416,178.4415,19.71,94,40,0.0,FJ,1697479515
354,huambo,-12.7761,15.7392,22.89,68,96,2.57,AO,1697479515
355,vidalia,32.2177,-82.4135,17.97,52,100,4.12,US,1697479516
356,massawa,15.6097,39.45,32.45,57,22,1.11,ER,1697479516
357,nikko,36.75,139.6167,11.87,89,64,2.51,JP,1697479517
358,apolinario saravia,-24.4328,-63.9954,41.18,17,21,1.12,AR,1697479517
359,twentynine palms,34.1356,-116.0542,32.73,14,0,0.45,US,1697479436
360,myrina,39.8797,25.0742,14.58,63,75,7.72,GR,1697479518
361,ellensburg,46.9965,-120.5479,11.43,82,100,0.0,US,1697479519
362,zalingei,12.9096,23.4741,29.71,28,96,1.69,SD,1697479519
363,kayes,14.0,-11.0,33.47,28,54,0.71,ML,1697479520
364,makar'yev,57.8797,43.8069,5.37,94,100,2.24,RU,1697479520
365,knyaze-volkonskoye,48.4642,135.4567,2.7,76,92,1.34,RU,1697479521
366,katsina-ala,7.1667,9.2833,26.72,77,100,1.95,NG,1697479522
367,klaksvik,62.2266,-6.589,10.51,90,100,10.66,FO,1697479522
368,sereflikochisar,38.9393,33.5386,18.01,43,54,4.06,TR,1697479523
369,gornopravdinsk,60.05,69.9,10.1,96,99,2.98,RU,1697479523
370,puerto baquerizo moreno,-0.9,-89.6,28.55,61,40,4.63,EC,1697479523
371,hamilton,39.1834,-84.5333,12.92,76,94,2.68,US,1697479270
372,thunder bay,48.4001,-89.3168,7.99,66,75,2.57,CA,1697479240
373,zhicheng,30.2956,111.5047,19.05,63,6,1.26,CN,1697479524
374,chinhoyi,-17.3667,30.2,22.7,67,81,5.51,ZW,1697479524
375,bayanhongor,46.7167,100.1167,-3.15,45,11,1.64,MN,1697479525
376,kodiak,57.79,-152.4072,6.73,93,100,5.66,US,1697479525
377,sai buri,6.7013,101.6168,25.43,88,100,1.06,TH,1697479525
378,olinda,-8.0089,-34.8553,27.85,65,40,7.72,BR,1697479526
379,umm qasr,30.0405,47.9168,31.93,28,5,5.91,IQ,1697479526
380,choibalsan,48.0667,114.5,8.06,44,35,3.97,MN,1697479526
381,fort st. john,56.2499,-120.8529,4.94,93,75,2.06,CA,1697479526
382,akjoujt,19.6969,-14.4164,36.64,13,15,5.63,MR,1697479526
383,'ain benian,36.8028,2.9219,24.03,61,81,1.99,DZ,1697479527
384,yuzhno-kurilsk,44.0306,145.8556,10.76,75,86,4.57,RU,1697479527
385,rio grande,-32.035,-52.0986,20.53,97,100,4.99,BR,1697479305
386,lianjiang,21.6467,110.2817,22.45,73,100,2.27,CN,1697479527
387,aleksandrovsk-sakhalinskiy,50.8975,142.1561,11.46,90,100,4.47,RU,1697479527
388,kendari,-3.945,122.4989,23.52,90,31,1.1,ID,1697479527
389,kiunga,-6.1219,141.2906,22.7,100,100,0.63,PG,1697479528
390,moussoro,13.6408,16.4901,35.16,27,44,3.23,TD,1697479528
391,santo antonio do taua,-1.1519,-48.1294,30.97,79,74,2.83,BR,1697479528
392,badger,64.8,-147.5333,2.21,73,88,0.89,US,1697479316
393,kulhudhuffushi,6.6221,73.07,28.4,73,65,5.74,MV,1697479529
394,kabalo,-6.05,26.9167,25.65,62,89,2.14,CD,1697479529
395,namtsy,62.7161,129.6658,-3.87,60,91,4.06,RU,1697479529
396,wenshui,28.4506,106.5267,15.68,77,24,2.45,CN,1697479531
397,saint-pierre,-21.3393,55.4781,24.82,78,40,0.0,RE,1697479531
398,arrifes,37.7667,-25.7,21.07,78,40,7.2,PT,1697479531
399,taro,-8.3862,115.28,22.0,92,77,0.92,ID,1697479531
400,zeribet el oued,34.6828,6.5111,25.94,21,0,1.72,DZ,1697479532
401,benghazi,32.1167,20.0667,24.35,68,0,3.93,LY,1697479532
402,ust-nera,64.5667,143.2,-21.86,99,53,1.49,RU,1697479315
403,oamaru,-45.0784,170.9801,7.43,92,100,2.86,NZ,1697479533
404,tidjikja,18.5564,-11.4271,33.97,11,7,3.65,MR,1697479533
405,alo,7.4178,6.7371,25.57,91,69,2.2,NG,1697479534
406,yoloten,37.2989,62.3597,15.9,25,0,5.01,TM,1697479534
407,corinto,37.9407,22.9573,21.61,68,95,2.52,GR,1697479534
408,la sarre,48.8002,-79.1996,10.88,52,26,5.18,CA,1697479535
409,fortuna,40.5982,-124.1573,18.29,91,100,2.24,US,1697479330
410,arraial do cabo,-22.9661,-42.0278,27.98,74,20,10.29,BR,1697479337
411,kimbe,-5.5502,150.1429,24.36,85,100,0.83,PG,1697479536
412,inarajan village,13.2736,144.7484,27.54,91,88,2.56,GU,1697479536
413,muroto-misakicho,33.2833,134.15,20.32,63,0,2.21,JP,1697479536
414,galveston,29.3669,-94.9669,21.69,55,0,6.17,US,1697479537
415,emerald,-23.5333,148.1667,22.97,41,30,5.78,AU,1697479320
416,greeley,40.4233,-104.7091,21.93,35,1,1.38,US,1697478949
417,cusseta,32.3054,-84.7727,17.81,53,1,5.5,US,1697479537
418,auki,-8.7676,160.7034,25.08,89,97,1.54,SB,1697479538
419,ashburton,-37.8626,145.0794,10.75,69,37,0.45,AU,1697479538
420,afaahiti,-17.75,-149.2833,25.93,84,100,4.87,PF,1697479538
421,vangviang,18.9333,102.45,21.79,99,21,1.18,LA,1697479538
422,tralee,52.2704,-9.7026,11.14,82,20,3.6,IE,1697479538
423,chikodi,16.4333,74.6,25.4,58,97,1.61,IN,1697479538
424,jijiga,9.35,42.8,21.2,58,71,3.77,ET,1697479539
425,kenai,60.5544,-151.2583,7.83,75,40,8.23,US,1697479539
426,mccook,40.2019,-100.6257,16.25,49,0,2.06,US,1697479539
427,timbuktu,16.7735,-3.0074,35.55,12,86,1.08,ML,1697479539
428,alice springs,-23.7,133.8833,12.75,47,0,3.09,AU,1697479319
429,bitkine,11.9801,18.2138,31.64,39,79,0.97,TD,1697479539
430,ulan bator,47.9077,106.8832,1.07,75,0,4.0,MN,1697479540
431,touros,-5.1989,-35.4608,28.14,60,14,9.04,BR,1697479540
432,fort bragg,35.139,-79.006,18.79,49,75,3.09,US,1697479540
433,kalaleh,37.3807,55.4916,20.78,64,75,5.14,IR,1697479541
434,midvagur,62.0511,-7.1939,10.46,87,100,10.29,FO,1697479541
435,merowe,18.4833,31.8167,31.53,15,13,7.3,SD,1697479541
436,heihe,50.2441,127.4902,1.36,46,2,2.38,CN,1697479542
437,hasaki,35.7333,140.8333,14.05,64,0,2.5,JP,1697479341
438,barclayville,4.6797,-8.2339,24.79,89,93,3.38,LR,1697479542
439,san julian,21.0167,-102.1667,22.63,35,37,4.83,MX,1697479543
440,khandyga,62.6667,135.6,-15.01,74,32,1.96,RU,1697479543
441,mersing,2.4312,103.8405,24.95,94,20,3.09,MY,1697479543
442,kilju,40.9642,129.3278,7.38,45,2,2.32,KP,1697479543
443,pader,3.05,33.2167,19.13,97,93,2.79,UG,1697479544
444,machico,32.7,-16.7667,27.62,85,20,8.75,PT,1697479384
445,santo domingo zanatepec,16.4831,-94.3475,28.01,67,100,3.85,MX,1697479544
446,al muwayh,22.4333,41.7583,26.73,15,0,4.14,SA,1697479544
447,goundam,16.4145,-3.6708,36.23,11,90,2.76,ML,1697479545
448,inhapi,-9.2214,-37.7486,32.45,25,19,6.13,BR,1697479546
449,sao pedro do sul,-29.6206,-54.1789,19.36,98,100,1.7,BR,1697479414
450,san patricio,28.017,-97.5169,22.94,35,0,6.8,US,1697479346
451,ballymoney,55.0708,-6.5101,8.73,68,40,2.26,GB,1697479464
452,chizhou,30.6578,117.4831,17.03,73,0,1.75,CN,1697479548
453,dourbali,11.8091,15.8632,32.53,40,26,2.62,TD,1697479548
454,curaca,-8.9903,-39.9094,35.06,19,5,7.01,BR,1697479549
455,laufach,50.0167,9.3,8.28,79,74,1.68,DE,1697479549
456,ta`u,-14.2336,-169.5144,26.66,78,48,9.12,AS,1697479549
457,lib,8.3122,167.3766,28.48,74,44,5.54,MH,1697479550
458,kontagora,10.3999,5.4695,27.86,61,86,0.96,NG,1697479550
459,kingston,17.997,-76.7936,32.36,73,20,5.14,JM,1697479517
460,siwa oasis,29.2041,25.5195,25.44,34,0,2.58,EG,1697479551
461,whakatane,-37.9585,176.9854,13.21,96,99,4.05,NZ,1697479551
462,burang,30.25,81.1667,0.28,62,85,2.69,CN,1697479551
463,rongelap,11.1635,166.8941,28.6,74,79,7.83,MH,1697479552
464,flying fish cove,-10.4217,105.6791,25.82,94,100,5.66,CX,1697479339
465,taulaga,-11.0553,-171.0883,27.93,77,100,9.7,AS,1697479552
466,kirakira,-10.4544,161.9205,25.74,87,67,2.28,SB,1697479552
467,lazaro cardenas,17.9583,-102.2,30.56,66,87,0.65,MX,1697479553
468,kavaratti,10.5669,72.642,28.32,74,69,5.51,IN,1697479553
469,sona,45.4388,10.8255,13.75,61,100,1.92,IT,1697479553
470,ganye,8.4333,12.0667,23.79,86,37,0.71,NG,1697479553
471,babor - ville,36.4899,5.5393,23.56,53,33,0.91,DZ,1697479554
472,arno,60.1167,18.6333,7.66,62,3,5.61,SE,1697479554
473,taber,49.8167,-112.1518,15.0,64,88,5.14,CA,1697479410
474,lihue,21.9789,-159.3672,26.77,82,20,4.63,US,1697479554
475,urzhar,47.093,81.6294,6.6,59,48,2.73,KZ,1697479554
476,letlhakeng,-24.0944,25.0298,23.52,17,0,4.06,BW,1697479554
477,ulety,51.3572,112.4849,3.44,68,66,6.37,RU,1697479554
478,klamath falls,42.2249,-121.7817,18.05,52,0,3.6,US,1697479430
479,dem'yanovo,60.3511,47.0842,6.72,90,100,2.84,RU,1697479555
480,zbaszynek,52.2431,15.8165,6.55,100,97,1.54,PL,1697479555
481,majholi,23.5,79.9167,22.23,70,16,1.88,IN,1697479555
482,visakhapatnam,17.69,83.2093,25.94,78,40,1.03,IN,1697479243
483,klyuchi,52.2667,79.1667,10.07,58,100,5.21,RU,1697479403
484,huarmey,-10.0681,-78.1522,23.01,75,52,4.59,PE,1697479555
485,yorosso,12.3536,-4.7761,31.4,35,100,1.72,ML,1697479417
486,imbituba,-28.24,-48.6703,21.61,97,100,6.27,BR,1697479348
487,xining,36.6167,101.7667,6.81,85,92,1.04,CN,1697479555
488,ouesso,1.6136,16.0517,23.16,95,90,0.44,CG,1697479556
489,andapa,-14.65,49.65,19.02,97,7,0.55,MG,1697479556
490,ghat,24.9647,10.1728,29.29,16,26,4.6,LY,1697479556
491,mizdah,31.4451,12.9801,23.96,23,0,1.68,LY,1697479556
492,el granada,37.5027,-122.4694,24.35,71,0,3.09,US,1697479556
493,battonya,46.2833,21.0167,7.03,41,25,1.63,HU,1697479556
494,inari,68.906,27.0288,2.11,89,81,5.24,FI,1697479556
495,meiganga,6.5167,14.3,18.83,94,88,1.23,CM,1697479556
496,jacksonville,30.3322,-81.6556,19.45,65,75,7.72,US,1697479001
497,voronovytsya,49.1095,28.6808,6.38,65,65,6.81,UA,1697479557
498,axim,4.8699,-2.2405,24.76,87,80,5.08,GH,1697479557
499,dawei,14.0833,98.2,24.16,93,82,1.13,MM,1697479557
500,conceicao da barra,-18.5933,-39.7322,27.85,65,17,4.56,BR,1697479557
501,carolina,18.3808,-65.9574,35.4,55,40,5.36,PR,1697479557
502,crowley,30.2141,-92.3746,19.98,38,4,5.88,US,1697479557
503,castillos,-34.1667,-53.8333,19.06,86,100,2.17,UY,1697479557
504,port augusta,-32.5,137.7667,8.89,69,0,3.03,AU,1697479557
505,al qadarif,14.0349,35.3834,26.79,52,98,6.16,SD,1697479558
506,kristiansund,63.1115,7.732,8.36,87,75,5.14,NO,1697479344
507,yesilli,37.3405,40.8256,19.29,50,49,0.84,TR,1697479558
508,patu,-6.11,-37.6367,35.85,21,50,4.42,BR,1697479558
509,urangan,-25.3,152.9,20.56,83,1,4.62,AU,1697479558
510,mejit,10.2753,170.8646,27.91,73,10,7.34,MH,1697479558
511,bel ombre,-4.6167,55.4167,27.91,78,20,4.12,SC,1697479558
512,shalqar,47.8333,59.6,11.51,54,0,3.98,KZ,1697479558
513,mahina,-17.5065,-149.489,26.87,74,20,2.57,PF,1697479558
514,kitimat,54.0524,-128.6534,11.21,63,100,1.34,CA,1697479559
515,beloyarskiy,63.7119,66.6722,5.0,91,66,2.24,RU,1697479559
516,maragogi,-9.0122,-35.2225,26.81,64,26,6.22,BR,1697479315
517,dolores,-36.3132,-57.6792,20.91,67,82,7.18,AR,1697479559
518,tazacorte,28.629,-17.9293,28.42,44,0,2.06,ES,1697479361
519,novyy urgal,51.0736,132.5642,-1.12,81,51,0.46,RU,1697479559
520,fengxiang,47.5833,130.8333,2.31,44,1,6.41,CN,1697479559
521,mar del plata,-38.0023,-57.5575,16.08,83,75,8.23,AR,1697479559
522,carbonear,47.7332,-53.2148,12.0,97,100,12.62,CA,1697479560
523,chernyshevskiy,63.0128,112.4714,-1.08,97,100,2.27,RU,1697479560
524,kaedi,16.1465,-13.5047,38.26,10,0,3.1,MR,1697479560
525,ishigaki,24.3448,124.1572,24.07,69,100,2.57,JP,1697479561
526,codrington,-38.2667,141.9667,7.5,78,6,2.44,AU,1697479561
527,ola,59.5833,151.2833,2.86,91,100,3.02,RU,1697479561
528,mandal,25.45,74.5667,23.29,58,34,2.85,IN,1697479561
529,cascais,38.6979,-9.4215,22.92,97,100,10.28,PT,1697479398
530,loiza,18.4313,-65.8802,35.45,54,40,4.12,PR,1697479562
531,salina cruz,16.1667,-95.2,30.53,53,79,13.1,MX,1697479273
532,salinopolis,-0.6136,-47.3561,29.47,70,54,6.75,BR,1697479562
533,puerto ayacucho,5.6639,-67.6236,30.95,62,84,1.53,VE,1697479563
534,vilcun,-38.65,-72.2333,13.41,42,3,3.41,CL,1697479563
535,sola,-13.8833,167.55,25.77,84,29,9.3,VU,1697479563
536,mananara,-16.1667,49.7667,23.47,89,68,0.62,MG,1697479564
537,portland,45.5234,-122.6762,17.02,95,100,4.47,US,1697479459
538,ciudad lazaro cardenas,17.9583,-102.2,30.56,66,87,0.65,MX,1697479565
539,ormara,25.2088,64.6357,26.66,81,2,6.27,PK,1697479565
540,khash,28.2211,61.2158,19.52,22,0,1.84,IR,1697479565
541,big stone gap,36.8677,-82.7745,11.53,87,100,1.49,US,1697479566
542,robertsport,6.7533,-11.3686,26.56,83,100,4.37,LR,1697479383
543,as sulayyil,20.4607,45.5779,28.14,11,1,3.21,SA,1697479566
544,tromso,69.6496,18.957,3.01,81,75,1.54,NO,1697479567
545,severo-yeniseyskiy,60.3725,93.0408,0.88,90,96,4.02,RU,1697479567
546,itaueira,-7.6033,-43.0256,37.44,21,6,3.39,BR,1697479567
547,callao,-12.0667,-77.15,21.16,73,75,2.57,PE,1697479567
548,grand baie,-20.0182,57.5802,24.14,73,8,3.4,MU,1697479568
549,nuuk,64.1835,-51.7216,-1.66,69,0,6.71,GL,1697479568
550,cidreira,-30.1811,-50.2056,19.2,99,100,3.26,BR,1697479315
551,somotillo,13.0433,-86.9064,33.08,83,100,1.81,NI,1697479569
552,vyksa,55.3175,42.1744,7.45,94,100,3.72,RU,1697479569
553,diego de almagro,-26.3667,-70.05,27.22,19,77,4.7,CL,1697479300
554,saint-philippe,-21.3585,55.7679,24.77,87,61,1.39,RE,1697479570
555,sargatskoye,55.6101,73.4972,8.04,89,87,3.71,RU,1697479570
556,mata-utu,-13.2816,-176.1745,27.28,80,78,9.73,WF,1697479322
557,brookings,44.3114,-96.7984,14.14,55,0,2.68,US,1697479571
558,padangsidempuan,1.3667,99.2667,22.51,99,100,0.95,ID,1697479571
559,meybod,32.2501,54.0166,27.01,19,7,1.5,IR,1697479571
560,hobyo,5.3505,48.5268,27.92,78,88,6.49,SO,1697479572
561,antalaha,-14.9003,50.2788,22.42,92,8,1.13,MG,1697479572
562,floro,61.5996,5.0328,5.98,93,75,3.09,NO,1697479572
563,akbarpur,26.4167,82.55,24.19,78,19,3.59,IN,1697479573
564,bikenibeu village,1.3673,173.1241,28.98,70,20,1.54,KI,1697479343
565,hawera,-39.5917,174.2833,15.68,80,44,6.37,NZ,1697479574
566,salalah,17.0151,54.0924,27.05,78,20,2.06,OM,1697479574
567,skhira,34.2992,10.07,27.82,49,0,5.19,TN,1697479574
568,dryden,49.7833,-92.7503,8.16,71,0,1.03,CA,1697479575
569,watampone,-4.5386,120.3279,24.74,84,12,3.02,ID,1697479575
570,nabire,-3.3667,135.4833,24.0,93,98,1.96,ID,1697479377
571,safaga,26.7292,33.9365,26.45,40,0,7.27,EG,1697479577
572,sal rei,16.1833,-22.9167,32.11,58,0,6.17,CV,1697479578
573,glubokoye,50.1456,82.3114,2.86,81,87,3.0,KZ,1697479578
574,belo sur tsiribihina,-19.7,44.55,25.36,83,17,2.6,MG,1697479578
575,monrovia,6.3005,-10.7969,28.87,84,94,3.45,LR,1697479578
576,okhotsk,59.3833,143.3,-5.49,70,93,9.33,RU,1697479579
577,piura,-5.2,-80.6333,32.28,42,59,3.29,PE,1697479540
578,taungoo,18.9333,96.4333,23.5,94,100,0.7,MM,1697479579
579,kamakwie,9.5,-12.2333,27.53,84,64,1.65,SL,1697479580
580,karatau,43.1667,70.4667,8.46,47,0,2.17,KZ,1697479580
581,lebowakgomo,-24.2,29.5,16.5,80,96,2.86,ZA,1697479580
582,mount isa,-20.7333,139.5,22.87,20,3,10.29,AU,1697479581
583,turpan,42.9333,89.1667,16.38,33,73,2.01,CN,1697479581
584,fort irwin,35.2627,-116.6848,23.74,22,0,0.0,US,1697479582
585,terra rica,-22.7094,-52.6169,37.61,24,37,4.29,BR,1697479582
586,jardim de piranhas,-6.3786,-37.3519,36.88,18,40,4.99,BR,1697479350
587,mirpur sakro,24.5474,67.6277,26.64,74,2,5.63,PK,1697479583
588,alibag,18.6411,72.8792,31.04,81,20,2.77,IN,1697479583
589,melekeok village,7.4957,134.6367,27.45,74,96,2.24,PW,1697479584
590,playa del ingles,27.7567,-15.5787,26.89,62,100,1.34,ES,1697479390
